{"pageProps":{"villages":[{"municipality":"Tublay","association":"Baayan Farmers Association ","lon":"120.6447996","barangay":"Ba-ayan","lat":"16.53712744","province":"Benguet "},{"association":"Daclan Kafamilja Rural Improvement Club","municipality":"Tublay","lon":"120.6364749","province":"Benguet ","barangay":"Daclan","lat":"16.50920637"},{"barangay":"Caponga","municipality":"Tublay","lon":"120.6640151","province":"Benguet ","lat":"16.48121555","association":"Tublay Organic Farming Practitioners Agricultural Cooperative"},{"association":"Butie Farmers Agriculture Cooperative","lat":"16.8511","barangay":"Itab","province":"Ifugao","lon":"121.3364","municipality":"Aguinaldo"},{"lat":"16.7822","province":"Benguet","lon":"120.6127","association":"Bakun Farmers Association","municipality":"Bakun","barangay":"Kayapa"},{"association":"Liwan East Farmers Association","municipality":"Rizal","province":"Kalinga","lon":"121.622283","barangay":"Liwan East","lat":"17.519475"},{"barangay":"Butigue","lat":"17.105","lon":"121.4612","province":"Mountain Province","municipality":"Paracelis","association":"Butigue Kapamilya Farmers Association"},{"province":"Benguet","lat":"16.8314127","association":"Macascasa Farmers Association","lon":"120.8426395","barangay":"Bangao","municipality":"Buguias"},{"municipality":"Buguias","lon":"120.8505212","province":"Benguet","association":"Amdodon Farmers Association","lat":"16.8060368","barangay":"Amdodon"},{"barangay":"Calamagan","province":"Benguet","lon":"120.8548146","lat":"16.821774","municipality":"Buguias","association":"Vegeland Agriculture Cooperative"},{"province":"Benguet","barangay":"Abatan","lon":"120.8207502","association":"Northern Hills Farmers Association","municipality":"Buguias","lat":"16.8014755"},{"municipality":"Buguias","lat":"16.8205799","province":"Benguet","association":"Bangao Gabi Growers Association","lon":"120.857801","barangay":"Bangao"},{"province":"Benguet","lat":"16.4890845","lon":"120.6478449","municipality":"Tublay","association":"Docot Multipurpose Cooperative","barangay":"Ambassador"},{"municipality":"Flora","barangay":"Santa Maria","lon":"121.41295","lat":"18.13537964","province":"Apayao","association":"Marian Farmers Association"}],"provincesMunicipalities":[{"disabled":false,"id":0,"municipalities":[{"disabled":false,"id":0,"label":"Bangued"},{"disabled":false,"label":"Boliney","id":1},{"label":"Bucay","disabled":false,"id":2},{"label":"Bucloc","id":3,"disabled":false},{"label":"Daguioman","id":4,"disabled":false},{"id":5,"label":"Danglas","disabled":false},{"id":6,"disabled":false,"label":"Dolores"},{"id":7,"disabled":false,"label":"La Paz"},{"label":"Lacub","id":8,"disabled":false},{"disabled":false,"label":"Lagangilang","id":9},{"label":"Lagayan","id":10,"disabled":false},{"id":11,"label":"Langiden","disabled":false},{"disabled":false,"label":"Licuan-Baay","id":12},{"id":13,"label":"Luba","disabled":false},{"label":"Malibcong","id":14,"disabled":false},{"disabled":false,"id":15,"label":"Manabo"},{"disabled":true,"id":16,"label":"PeÃ±arrubia"},{"id":17,"disabled":false,"label":"Pidigan"},{"disabled":false,"label":"Pilar","id":18},{"id":19,"label":"Sallapadan","disabled":false},{"id":20,"label":"San Isidro","disabled":false},{"label":"San Juan","id":21,"disabled":false},{"disabled":false,"label":"San Quintin","id":22},{"label":"Tayum","id":23,"disabled":false},{"id":24,"label":"Tineg","disabled":false},{"disabled":false,"id":25,"label":"Tubo"},{"disabled":false,"id":26,"label":"Villaviciosa"},{"label":"Peñarrubia","id":27,"disabled":false,"iscalendar":true}],"label":"Abra"},{"municipalities":[{"label":"Atok","disabled":false,"id":0},{"label":"Bakun","id":1,"disabled":false},{"disabled":false,"label":"Bokod","id":2},{"disabled":false,"id":3,"label":"Buguias"},{"disabled":true,"label":"City of Baguio","id":4},{"disabled":false,"id":5,"label":"Itogon"},{"disabled":false,"label":"Kabayan","id":6},{"disabled":false,"label":"Kapangan","id":7},{"label":"Kibungan","disabled":false,"id":8},{"disabled":false,"id":9,"label":"La Trinidad"},{"id":10,"label":"Mankayan","disabled":false},{"id":11,"label":"Sablan","disabled":false},{"disabled":false,"id":12,"label":"Tuba"},{"disabled":false,"label":"Tublay","id":13},{"disabled":false,"label":"Baguio City","id":14,"iscalendar":true}],"label":"Benguet","id":1,"disabled":false},{"municipalities":[{"disabled":false,"label":"Aguinaldo","id":0},{"label":"Alfonso Lista","disabled":false,"id":1},{"id":2,"label":"Asipulo","disabled":false},{"id":3,"label":"Banaue","disabled":false},{"label":"Hingyon","disabled":false,"id":4},{"id":5,"disabled":false,"label":"Hungduan"},{"id":6,"label":"Kiangan","disabled":false},{"disabled":false,"label":"Lagawe","id":7},{"label":"Lamut","id":8,"disabled":false},{"label":"Mayoyao","id":9,"disabled":false},{"disabled":false,"label":"Tinoc","id":10}],"id":2,"label":"Ifugao","disabled":false},{"municipalities":[{"label":"Balbalan","disabled":false,"id":0},{"label":"City of Tabuk","disabled":true,"id":1},{"disabled":false,"label":"Lubuagan","id":2},{"label":"Pasil","id":3,"disabled":false},{"disabled":false,"label":"Pinukpuk","id":4},{"id":5,"disabled":false,"label":"Rizal"},{"id":6,"disabled":false,"label":"Tanudan"},{"id":7,"disabled":false,"label":"Tinglayan"},{"label":"Tabuk City","id":8,"disabled":false,"iscalendar":true}],"label":"Kalinga","id":3,"disabled":false},{"municipalities":[{"disabled":false,"label":"Barlig","id":0},{"id":1,"disabled":false,"label":"Bauko"},{"id":2,"disabled":false,"label":"Besao"},{"label":"Bontoc","id":3,"disabled":false},{"label":"Natonin","id":4,"disabled":false},{"label":"Paracelis","disabled":false,"id":5},{"id":6,"label":"Sabangan","disabled":false},{"id":7,"disabled":false,"label":"Sadanga"},{"disabled":false,"label":"Sagada","id":8},{"label":"Tadian","id":9,"disabled":false}],"id":4,"disabled":false,"label":"Mountain Province"},{"label":"Apayao","disabled":false,"municipalities":[{"disabled":false,"label":"Calanasan","id":0},{"label":"Conner","id":1,"disabled":false},{"id":2,"disabled":false,"label":"Flora"},{"id":3,"disabled":false,"label":"Kabugao"},{"label":"Luna","id":4,"disabled":false},{"label":"Pudtol","disabled":false,"id":5},{"disabled":false,"id":6,"label":"Santa Marcela"}],"id":5}],"media":{"description":"Agro-Climatic Advisory Portal-Cordillera (ACAP-Cordillera) serves as a centralized hub for the development of Climate Information Services (CIS) in the Cordillera Region. It contains relevant weather and climate information which can be used in developing tailored advisories and crop recommendations.","url":"https://firebasestorage.googleapis.com/v0/b/car-cis-dev.appspot.com/o/images%2Fog_home_1200.png?alt=media&token=b5092d65-9335-4adc-a5ae-42358609d417","path":"https://acap-car.github.io"}},"__N_SSG":true}